{
"type": "FeatureCollection",
"crs": { "type": "name", "properties": { "name": "urn:ogc:def:crs:OGC:1.3:CRS84" } },
"features": [
{ "type": "Feature", "properties": { "Address": "10000 W Balmoral Ave, Chicago, IL 60666, United States", "Category": "Airport", "Latitude": 41.9802588, "Longitude": -87.9089858 }, "geometry": { "type": "Point", "coordinates": [ -87.9089858, 41.9802588 ] } },
{ "type": "Feature", "properties": { "Address": "5700 S Cicero Ave, Chicago, IL 60638, United States", "Category": "Airport", "Latitude": 41.7867759, "Longitude": -87.7521884 }, "geometry": { "type": "Point", "coordinates": [ -87.7521884, 41.7867759 ] } },
{ "type": "Feature", "properties": { "Address": "Unnamed Road, Chicago, IL 60605, United States", "Category": "Airport", "Latitude": 41.8600681, "Longitude": -87.6100629 }, "geometry": { "type": "Point", "coordinates": [ -87.6100629, 41.8600681 ] } },
{ "type": "Feature", "properties": { "Address": "225 S Canal St, Chicago, IL 60606, United States", "Category": "Public_transp", "Latitude": 41.8786897, "Longitude": -87.640311 }, "geometry": { "type": "Point", "coordinates": [ -87.640311, 41.8786897 ] } },
{ "type": "Feature", "properties": { "Address": "500 W Madison St, Chicago, IL 60661, United States", "Category": "Public_transp", "Latitude": 41.8831389, "Longitude": -87.6404919 }, "geometry": { "type": "Point", "coordinates": [ -87.6404919, 41.8831389 ] } },
{ "type": "Feature", "properties": { "Address": "151 Michigan Ave, Chicago, IL 60602, United States", "Category": "Public_transp", "Latitude": 41.8843882, "Longitude": -87.6246974 }, "geometry": { "type": "Point", "coordinates": [ -87.6246974, 41.8843882 ] } },
{ "type": "Feature", "properties": { "Address": "225 S Canal St, Chicago, IL 60661, United States", "Category": "Public_transp", "Latitude": 41.8786006, "Longitude": -87.6388812 }, "geometry": { "type": "Point", "coordinates": [ -87.6388812, 41.8786006 ] } },
{ "type": "Feature", "properties": { "Address": "800 N State St, Chicago, IL 60610, United States", "Category": "Public_transp", "Latitude": 41.8967801, "Longitude": -87.6279205 }, "geometry": { "type": "Point", "coordinates": [ -87.6279205, 41.8967801 ] } },
{ "type": "Feature", "properties": { "Address": "521 N State St, Chicago, IL 60610, United States", "Category": "Public_transp", "Latitude": 41.8917982, "Longitude": -87.628191 }, "geometry": { "type": "Point", "coordinates": [ -87.628191, 41.8917982 ] } },
{ "type": "Feature", "properties": { "Address": "Chicago, IL 60654, United States", "Category": "Public_transp", "Latitude": 41.8959556, "Longitude": -87.635684 }, "geometry": { "type": "Point", "coordinates": [ -87.635684, 41.8959556 ] } },
{ "type": "Feature", "properties": { "Address": "414 S La Salle St, Chicago, IL 60605, United States", "Category": "Public_transp", "Latitude": 41.8752999, "Longitude": -87.6321477 }, "geometry": { "type": "Point", "coordinates": [ -87.6321477, 41.8752999 ] } },
{ "type": "Feature", "properties": { "Address": "Chicago, IL 60606, United States", "Category": "Public_transp", "Latitude": 41.8791414, "Longitude": -87.6394517 }, "geometry": { "type": "Point", "coordinates": [ -87.6394517, 41.8791414 ] } },
{ "type": "Feature", "properties": { "Address": "230 S State St, Chicago, IL 60604, United States", "Category": "Public_transp", "Latitude": 41.8782124, "Longitude": -87.6276726 }, "geometry": { "type": "Point", "coordinates": [ -87.6276726, 41.8782124 ] } },
{ "type": "Feature", "properties": { "Address": "225 S Canal St, Chicago, IL 60606, United States", "Category": "Public_transp", "Latitude": 41.8786694, "Longitude": -87.6389755 }, "geometry": { "type": "Point", "coordinates": [ -87.6389755, 41.8786694 ] } },
{ "type": "Feature", "properties": { "Address": "22 E Roosevelt Rd, Chicago, IL 60605, United States", "Category": "Public_transp", "Latitude": 41.8674302, "Longitude": -87.6266427 }, "geometry": { "type": "Point", "coordinates": [ -87.6266427, 41.8674302 ] } },
{ "type": "Feature", "properties": { "Address": "E 27th St, Chicago, IL 60616, United States", "Category": "Public_transp", "Latitude": 41.8441667, "Longitude": -87.6133333 }, "geometry": { "type": "Point", "coordinates": [ -87.6133333, 41.8441667 ] } },
{ "type": "Feature", "properties": { "Address": "132 E Van Buren St, Chicago, IL 60605, United States", "Category": "Public_transp", "Latitude": 41.8771275, "Longitude": -87.6229325 }, "geometry": { "type": "Point", "coordinates": [ -87.6229325, 41.8771275 ] } },
{ "type": "Feature", "properties": { "Address": "1167 S State St, Chicago, IL 60605, United States", "Category": "Public_transp", "Latitude": 41.8678699, "Longitude": -87.6273214 }, "geometry": { "type": "Point", "coordinates": [ -87.6273214, 41.8678699 ] } },
{ "type": "Feature", "properties": { "Address": "Chicago, IL 60604, United States", "Category": "Public_transp", "Latitude": 41.8781559, "Longitude": -87.6293104 }, "geometry": { "type": "Point", "coordinates": [ -87.6293104, 41.8781559 ] } },
{ "type": "Feature", "properties": { "Address": "502 N Milwaukee Ave, Chicago, IL 60642, United States", "Category": "Public_transp", "Latitude": 41.8912256, "Longitude": -87.6476036 }, "geometry": { "type": "Point", "coordinates": [ -87.6476036, 41.8912256 ] } },
{ "type": "Feature", "properties": { "Address": "4014 W Fullerton Ave, Chicago, IL 60639, United States", "Category": "Public_transp", "Latitude": 41.9247475, "Longitude": -87.727968 }, "geometry": { "type": "Point", "coordinates": [ -87.727968, 41.9247475 ] } },
{ "type": "Feature", "properties": { "Address": "1060 W Addison St, Chicago, IL 60613, United States", "Category": "Stadium", "Latitude": 41.9484384, "Longitude": -87.6553327 }, "geometry": { "type": "Point", "coordinates": [ -87.6553327, 41.9484384 ] } },
{ "type": "Feature", "properties": { "Address": "1410 Special Olympics Dr, Chicago, IL 60605, United States", "Category": "Stadium", "Latitude": 41.8623132, "Longitude": -87.6166884 }, "geometry": { "type": "Point", "coordinates": [ -87.6166884, 41.8623132 ] } },
{ "type": "Feature", "properties": { "Address": "333 W 35th St, Chicago, IL 60616, United States", "Category": "Stadium", "Latitude": 41.8298609, "Longitude": -87.6336684 }, "geometry": { "type": "Point", "coordinates": [ -87.6336684, 41.8298609 ] } },
{ "type": "Feature", "properties": { "Address": "1901 W Madison St, Chicago, IL 60612, United States", "Category": "Stadium", "Latitude": 41.8806908, "Longitude": -87.6741759 }, "geometry": { "type": "Point", "coordinates": [ -87.6741759, 41.8806908 ] } },
{ "type": "Feature", "properties": { "Address": "2601 W Addison St, Chicago, IL 60618, United States", "Category": "Stadium", "Latitude": 41.9455156, "Longitude": -87.6924927 }, "geometry": { "type": "Point", "coordinates": [ -87.6924927, 41.9455156 ] } },
{ "type": "Feature", "properties": { "Address": "1117 S Central Ave, Chicago, IL 60644, United States", "Category": "Stadium", "Latitude": 41.8669077, "Longitude": -87.7638289 }, "geometry": { "type": "Point", "coordinates": [ -87.7638289, 41.8669077 ] } },
{ "type": "Feature", "properties": { "Address": "2233 N Central Ave, Chicago, IL 60639, United States", "Category": "Stadium", "Latitude": 41.9228721, "Longitude": -87.7650815 }, "geometry": { "type": "Point", "coordinates": [ -87.7650815, 41.9228721 ] } },
{ "type": "Feature", "properties": { "Address": "5105 N Leavitt St, Chicago, IL 60625, United States", "Category": "Stadium", "Latitude": 41.9741834, "Longitude": -87.6837356 }, "geometry": { "type": "Point", "coordinates": [ -87.6837356, 41.9741834 ] } },
{ "type": "Feature", "properties": { "Address": "6054 S Damen Ave, Chicago, IL 60636, United States", "Category": "Stadium", "Latitude": 41.7857246, "Longitude": -87.6749761 }, "geometry": { "type": "Point", "coordinates": [ -87.6749761, 41.7857246 ] } },
{ "type": "Feature", "properties": { "Address": "901 W Roosevelt Rd, Chicago, IL 60608, United States", "Category": "Stadium", "Latitude": 41.8654527, "Longitude": -87.6488105 }, "geometry": { "type": "Point", "coordinates": [ -87.6488105, 41.8654527 ] } },
{ "type": "Feature", "properties": { "Address": "2423 E 82nd St, Chicago, IL 60617, United States", "Category": "Stadium", "Latitude": 41.7455051, "Longitude": -87.5649218 }, "geometry": { "type": "Point", "coordinates": [ -87.5649218, 41.7455051 ] } },
{ "type": "Feature", "properties": { "Address": "W 79th St, Chicago, IL 60652, United States", "Category": "Stadium", "Latitude": 41.750955, "Longitude": -87.6869049 }, "geometry": { "type": "Point", "coordinates": [ -87.6869049, 41.750955 ] } },
{ "type": "Feature", "properties": { "Address": "E 55th St, Chicago, IL 60615, United States", "Category": "Stadium", "Latitude": 41.7940518, "Longitude": -87.6048373 }, "geometry": { "type": "Point", "coordinates": [ -87.6048373, 41.7940518 ] } },
{ "type": "Feature", "properties": { "Address": "810 E 103rd St, Chicago, IL 60628, United States", "Category": "Stadium", "Latitude": 41.7085091, "Longitude": -87.6026376 }, "geometry": { "type": "Point", "coordinates": [ -87.6026376, 41.7085091 ] } },
{ "type": "Feature", "properties": { "Address": "Chicago, IL 60628, United States", "Category": "Stadium", "Latitude": 41.7153074, "Longitude": -87.6068396 }, "geometry": { "type": "Point", "coordinates": [ -87.6068396, 41.7153074 ] } },
{ "type": "Feature", "properties": { "Address": "4 S Shields Ave, Chicago, IL 60616, United States", "Category": "Stadium", "Latitude": 41.8307276, "Longitude": -87.6352187 }, "geometry": { "type": "Point", "coordinates": [ -87.6352187, 41.8307276 ] } },
{ "type": "Feature", "properties": { "Address": "1035 W 74th St, Chicago, IL 60621, United States", "Category": "Stadium", "Latitude": 41.7590602, "Longitude": -87.6504841 }, "geometry": { "type": "Point", "coordinates": [ -87.6504841, 41.7590602 ] } },
{ "type": "Feature", "properties": { "Address": "Chicago, IL 60616, United States", "Category": "Stadium", "Latitude": 41.8388919, "Longitude": -87.6285968 }, "geometry": { "type": "Point", "coordinates": [ -87.6285968, 41.8388919 ] } },
{ "type": "Feature", "properties": { "Address": "1543 N Kingsbury St, Chicago, IL 60642, United States", "Category": "Night_club", "Latitude": 41.9093663, "Longitude": -87.6525434 }, "geometry": { "type": "Point", "coordinates": [ -87.6525434, 41.9093663 ] } },
{ "type": "Feature", "properties": { "Address": "5616 W Diversey Ave, Chicago, IL 60639, United States", "Category": "Night_club", "Latitude": 41.931441, "Longitude": -87.7669801 }, "geometry": { "type": "Point", "coordinates": [ -87.7669801, 41.931441 ] } },
{ "type": "Feature", "properties": { "Address": "4810 N Broadway, Chicago, IL 60640, United States", "Category": "Night_club", "Latitude": 41.9694069, "Longitude": -87.660067 }, "geometry": { "type": "Point", "coordinates": [ -87.660067, 41.9694069 ] } },
{ "type": "Feature", "properties": { "Address": "226 W Ontario St, Chicago, IL 60654, United States", "Category": "Night_club", "Latitude": 41.8934418, "Longitude": -87.6353769 }, "geometry": { "type": "Point", "coordinates": [ -87.6353769, 41.8934418 ] } },
{ "type": "Feature", "properties": { "Address": "1700 W Cortland St Suite 201, Chicago, IL 60622, United States", "Category": "Night_club", "Latitude": 41.916332, "Longitude": -87.670632 }, "geometry": { "type": "Point", "coordinates": [ -87.670632, 41.916332 ] } },
{ "type": "Feature", "properties": { "Address": "646 N Franklin St, Chicago, IL 60654, United States", "Category": "Night_club", "Latitude": 41.8937033, "Longitude": -87.6358657 }, "geometry": { "type": "Point", "coordinates": [ -87.6358657, 41.8937033 ] } },
{ "type": "Feature", "properties": { "Address": "215 W Ontario St, Chicago, IL 60654, United States", "Category": "Night_club", "Latitude": 41.892961, "Longitude": -87.634836 }, "geometry": { "type": "Point", "coordinates": [ -87.634836, 41.892961 ] } },
{ "type": "Feature", "properties": { "Address": "3124 N Central Ave, Chicago, IL 60634, United States", "Category": "Night_club", "Latitude": 41.9374504, "Longitude": -87.7668778 }, "geometry": { "type": "Point", "coordinates": [ -87.766877799999989, 41.9374504 ] } },
{ "type": "Feature", "properties": { "Address": "151 W Kinzie St, Chicago, IL 60654, United States", "Category": "Night_club", "Latitude": 41.8890402, "Longitude": -87.6330723 }, "geometry": { "type": "Point", "coordinates": [ -87.6330723, 41.8890402 ] } },
{ "type": "Feature", "properties": { "Address": "3124 N Central Ave, Chicago, IL 60641, United States", "Category": "Night_club", "Latitude": 41.9374598, "Longitude": -87.7668682 }, "geometry": { "type": "Point", "coordinates": [ -87.7668682, 41.9374598 ] } },
{ "type": "Feature", "properties": { "Address": "5 W Division St, Chicago, IL 60610, United States", "Category": "Night_club", "Latitude": 41.9037076, "Longitude": -87.6289997 }, "geometry": { "type": "Point", "coordinates": [ -87.6289997, 41.9037076 ] } },
{ "type": "Feature", "properties": { "Address": "353 North Clark, 65 W Kinzie St, Chicago, IL 60654, United States", "Category": "Night_club", "Latitude": 41.8889898, "Longitude": -87.6307529 }, "geometry": { "type": "Point", "coordinates": [ -87.6307529, 41.8889898 ] } },
{ "type": "Feature", "properties": { "Address": "9 W Division St, Chicago, IL 60610, United States", "Category": "Night_club", "Latitude": 41.903809, "Longitude": -87.629082 }, "geometry": { "type": "Point", "coordinates": [ -87.629082, 41.903809 ] } },
{ "type": "Feature", "properties": { "Address": "416 S Clark St, Chicago, IL 60605, United States", "Category": "Night_club", "Latitude": 41.8764042, "Longitude": -87.6310875 }, "geometry": { "type": "Point", "coordinates": [ -87.6310875, 41.8764042 ] } },
{ "type": "Feature", "properties": { "Address": "157 W Ontario St, Chicago, IL 60654, United States", "Category": "Night_club", "Latitude": 41.8929546, "Longitude": -87.6334283 }, "geometry": { "type": "Point", "coordinates": [ -87.6334283, 41.8929546 ] } },
{ "type": "Feature", "properties": { "Address": "3641 N Halsted St, Chicago, IL 60613, United States", "Category": "Night_club", "Latitude": 41.9485937, "Longitude": -87.6493563 }, "geometry": { "type": "Point", "coordinates": [ -87.6493563, 41.9485937 ] } },
{ "type": "Feature", "properties": { "Address": "Smartbar, 3730 N Clark St, Chicago, IL 60613, United States", "Category": "Night_club", "Latitude": 41.9497713, "Longitude": -87.6587675 }, "geometry": { "type": "Point", "coordinates": [ -87.6587675, 41.9497713 ] } },
{ "type": "Feature", "properties": { "Address": "3458 N Halsted St, Chicago, IL 60657, United States", "Category": "Night_club", "Latitude": 41.9453784, "Longitude": -87.6495995 }, "geometry": { "type": "Point", "coordinates": [ -87.6495995, 41.9453784 ] } },
{ "type": "Feature", "properties": { "Address": "157 W Ontario St Second Floor, Chicago, IL 60654, United States", "Category": "Night_club", "Latitude": 41.8929015, "Longitude": -87.6334028 }, "geometry": { "type": "Point", "coordinates": [ -87.6334028, 41.8929015 ] } },
{ "type": "Feature", "properties": { "Address": "1431 W Lake St, Chicago, IL 60607, United States", "Category": "Night_club", "Latitude": 41.8852747, "Longitude": -87.6636593 }, "geometry": { "type": "Point", "coordinates": [ -87.6636593, 41.8852747 ] } },
{ "type": "Feature", "properties": { "Address": "678 N Orleans St, Chicago, IL 60654, United States", "Category": "Bar", "Latitude": 41.8946282, "Longitude": -87.6374062 }, "geometry": { "type": "Point", "coordinates": [ -87.6374062, 41.8946282 ] } },
{ "type": "Feature", "properties": { "Address": "491 N Milwaukee Ave, Chicago, IL 60654, United States", "Category": "Bar", "Latitude": 41.8909676, "Longitude": -87.6469631 }, "geometry": { "type": "Point", "coordinates": [ -87.6469631, 41.8909676 ] } },
{ "type": "Feature", "properties": { "Address": "2771 N Lincoln Ave, Chicago, IL 60614, United States", "Category": "Bar", "Latitude": 41.9322652, "Longitude": -87.6580612 }, "geometry": { "type": "Point", "coordinates": [ -87.6580612, 41.9322652 ] } },
{ "type": "Feature", "properties": { "Address": "412 N State St, Chicago, IL 60654, United States", "Category": "Bar", "Latitude": 41.8897304, "Longitude": -87.6281508 }, "geometry": { "type": "Point", "coordinates": [ -87.6281508, 41.8897304 ] } },
{ "type": "Feature", "properties": { "Address": "1612 W Irving Park Rd Ste 1, Chicago, IL 60613, United States", "Category": "Bar", "Latitude": 41.9544231, "Longitude": -87.6696958 }, "geometry": { "type": "Point", "coordinates": [ -87.6696958, 41.9544231 ] } },
{ "type": "Feature", "properties": { "Address": "3281 W Armitage Ave, Chicago, IL 60647, United States", "Category": "Bar", "Latitude": 41.9171619, "Longitude": -87.7101417 }, "geometry": { "type": "Point", "coordinates": [ -87.7101417, 41.9171619 ] } },
{ "type": "Feature", "properties": { "Address": "622 N Fairbanks Ct, Chicago, IL 60611, United States", "Category": "Bar", "Latitude": 41.8932521, "Longitude": -87.6204905 }, "geometry": { "type": "Point", "coordinates": [ -87.6204905, 41.8932521 ] } },
{ "type": "Feature", "properties": { "Address": "50 E Chicago Ave, Chicago, IL 60611, United States", "Category": "Bar", "Latitude": 41.896891, "Longitude": -87.62625 }, "geometry": { "type": "Point", "coordinates": [ -87.62625, 41.896891 ] } },
{ "type": "Feature", "properties": { "Address": "9 W Hubbard St, Chicago, IL 60654, United States", "Category": "Night_club", "Latitude": 41.8899304, "Longitude": -87.6285525 }, "geometry": { "type": "Point", "coordinates": [ -87.6285525, 41.8899304 ] } },
{ "type": "Feature", "properties": { "Address": "205 W Lake St, Chicago, IL 60606, United States", "Category": "Bar", "Latitude": 41.8855838, "Longitude": -87.6342756 }, "geometry": { "type": "Point", "coordinates": [ -87.6342756, 41.8855838 ] } },
{ "type": "Feature", "properties": { "Address": "15 W Division St, Chicago, IL 60610, United States", "Category": "Bar", "Latitude": 41.903808, "Longitude": -87.629334 }, "geometry": { "type": "Point", "coordinates": [ -87.629334, 41.903808 ] } },
{ "type": "Feature", "properties": { "Address": "3201 W Armitage Ave, Chicago, IL 60647, United States", "Category": "Bar", "Latitude": 41.9172977, "Longitude": -87.7072039 }, "geometry": { "type": "Point", "coordinates": [ -87.7072039, 41.9172977 ] } },
{ "type": "Feature", "properties": { "Address": "216 N Wabash Ave, Chicago, IL 60601, United States", "Category": "Bar", "Latitude": 41.8863702, "Longitude": -87.6265311 }, "geometry": { "type": "Point", "coordinates": [ -87.6265311, 41.8863702 ] } },
{ "type": "Feature", "properties": { "Address": "210 W Kinzie St, Chicago, IL 60654, United States", "Category": "Bar", "Latitude": 41.8892707, "Longitude": -87.6345443 }, "geometry": { "type": "Point", "coordinates": [ -87.6345443, 41.8892707 ] } },
{ "type": "Feature", "properties": { "Address": "12 S Michigan Ave, Chicago, IL 60603, United States", "Category": "Bar", "Latitude": 41.881662, "Longitude": -87.6249684 }, "geometry": { "type": "Point", "coordinates": [ -87.6249684, 41.881662 ] } },
{ "type": "Feature", "properties": { "Address": "701 S Dearborn St, Chicago, IL 60605, United States", "Category": "Bar", "Latitude": 41.8733028, "Longitude": -87.6289909 }, "geometry": { "type": "Point", "coordinates": [ -87.6289909, 41.8733028 ] } },
{ "type": "Feature", "properties": { "Address": "134 S Wabash Ave, Chicago, IL 60603, United States", "Category": "Bar", "Latitude": 41.8798217, "Longitude": -87.6263483 }, "geometry": { "type": "Point", "coordinates": [ -87.626348299999989, 41.8798217 ] } },
{ "type": "Feature", "properties": { "Address": "1424 W Chicago Ave, Chicago, IL 60642, United States", "Category": "Bar", "Latitude": 41.896379, "Longitude": -87.6634469 }, "geometry": { "type": "Point", "coordinates": [ -87.6634469, 41.896379 ] } },
{ "type": "Feature", "properties": { "Address": "47 W Polk St, Chicago, IL 60605, United States", "Category": "Bar", "Latitude": 41.8720742, "Longitude": -87.6289047 }, "geometry": { "type": "Point", "coordinates": [ -87.6289047, 41.8720742 ] } },
{ "type": "Feature", "properties": { "Address": "806 W Randolph St, Chicago, IL 60607, United States", "Category": "Bar", "Latitude": 41.8846161, "Longitude": -87.6478096 }, "geometry": { "type": "Point", "coordinates": [ -87.6478096, 41.8846161 ] } }
]
}
